City_ID,City,Lat,Lng,Max Temp,Humidity,Cloudiness,Wind Speed,Country,Date
0,yellowknife,62.456,-114.3525,15.31,58,75,2.57,CA,1684981280
1,tura,25.5198,90.2201,26.64,62,3,2.13,IN,1684981762
2,port lincoln,-34.7333,135.8667,14.34,73,54,9.02,AU,1684981728
3,thompson,55.7435,-97.8558,19.09,27,75,2.06,CA,1684981744
4,ushuaia,-54.8,-68.3,5.81,56,40,4.63,AR,1684981711
5,port-aux-francais,-49.35,70.2167,5.84,99,100,8.21,TF,1684981737
6,port mathurin,-19.6833,63.4167,24.96,71,71,5.03,MU,1684981747
7,albany,42.6001,-73.9662,10.87,82,81,3.06,US,1684981738
8,grytviken,-54.2811,-36.5092,1.14,57,75,1.13,GS,1684981738
9,puerto natales,-51.7236,-72.4875,-0.02,85,75,2.41,CL,1684981745
10,lihue,21.9789,-159.3672,27.58,70,40,5.66,US,1684981754
11,cabo san lucas,22.8909,-109.9124,29.61,39,75,6.69,MX,1684981904
12,namibe,-15.1961,12.1522,19.51,82,2,5.13,AO,1684981904
13,al ghayzah,16.2079,52.176,29.02,69,8,2.78,YE,1684981904
14,sitka,57.0531,-135.33,10.94,87,100,4.12,US,1684981751
15,bethel,41.3712,-73.414,13.6,84,100,2.06,US,1684981744
16,papatowai,-46.5619,169.4708,15.33,65,96,3.42,NZ,1684981737
17,nova sintra,14.8667,-24.7167,20.44,81,99,7.02,CV,1684981734
18,kavieng,-2.5744,150.7967,27.03,83,100,5.89,PG,1684981905
19,constantia,44.1833,28.65,14.38,81,54,1.72,RO,1684981905
20,bredasdorp,-34.5322,20.0403,12.94,62,100,3.5,ZA,1684981739
21,hillvue,-31.1244,150.915,18.95,24,64,2.06,AU,1684981905
22,port shepstone,-30.7414,30.455,17.9,51,30,3.95,ZA,1684981905
23,mareeba,-17.0,145.4333,24.69,74,86,3.75,AU,1684981906
24,bezhetsk,57.7851,36.6965,13.02,94,100,1.65,RU,1684981906
25,edinburgh of the seven seas,-37.0676,-12.3116,15.22,68,96,13.17,SH,1684981757
26,abepura,-2.6333,140.5833,30.45,62,20,1.03,ID,1684981906
27,whitehorse,60.7161,-135.0538,18.9,36,75,7.2,CA,1684981673
28,al hufuf,25.3646,49.5653,29.19,20,0,2.06,SA,1684981906
29,fort st. john,56.2499,-120.8529,15.94,63,75,2.06,CA,1684981906
30,kirensk,57.7853,108.1119,5.07,87,100,1.72,RU,1684981906
31,island harbour,50.724,-1.2758,12.77,87,1,3.37,GB,1684981907
32,port elizabeth,-33.918,25.5701,16.84,82,0,5.14,ZA,1684981907
33,noumea,-22.2763,166.4572,22.99,58,90,4.87,NC,1684981907
34,anadyr,64.75,177.4833,5.28,70,20,5.0,RU,1684981907
35,okhotsk,59.3833,143.3,4.61,75,99,3.66,RU,1684981907
36,longyearbyen,78.2186,15.6401,1.91,87,100,6.17,SJ,1684981626
37,tazovsky,67.4667,78.7,2.56,84,11,2.43,RU,1684981745
38,east london,-33.0153,27.9116,21.4,31,99,4.0,ZA,1684981907
39,ola,59.5833,151.2833,2.83,81,100,3.06,RU,1684981741
40,new norfolk,-42.7826,147.0587,14.4,63,64,3.13,AU,1684981907
41,eket,4.6412,7.9209,26.15,89,100,2.74,NG,1684981908
42,talnakh,69.4865,88.3972,-0.44,88,100,1.95,RU,1684981743
43,petropavlovsk-kamchatsky,53.0452,158.6483,13.33,41,40,8.0,RU,1684981908
44,cacoal,-11.4386,-61.4472,23.59,81,98,1.29,BR,1684981708
45,invercargill,-46.4,168.35,14.99,68,90,3.52,NZ,1684981908
46,palembang,-2.9167,104.7458,30.05,74,20,2.57,ID,1684981908
47,dhuusamarreeb,5.535,46.3861,25.14,77,100,4.9,SO,1684981908
48,tindouf,27.6711,-8.1474,16.25,63,0,9.77,DZ,1684981908
49,sinabang,2.4803,96.3801,28.28,77,63,1.74,ID,1684981908
50,bangassou,4.7413,22.8184,20.6,88,16,1.05,CF,1684981909
51,carnarvon,-24.8667,113.6333,22.83,52,100,8.69,AU,1684981909
52,stanley,54.868,-1.6985,9.88,90,0,1.03,GB,1684981909
53,antonio enes,-16.2325,39.9086,22.09,77,2,2.64,MZ,1684981909
54,makushino,55.2103,67.2442,20.49,40,90,4.73,RU,1684981909
55,puerto ayora,-0.7393,-90.3518,25.86,91,4,0.89,EC,1684981735
56,enewetak,11.3474,162.3373,27.75,79,100,6.85,MH,1684981909
57,adamstown,-25.066,-130.1015,23.66,71,37,2.95,PN,1684981738
58,badger,64.8,-147.5333,20.93,37,100,3.6,US,1684981909
59,qarauyl,48.9451,79.255,15.96,46,82,5.93,KZ,1684981910
60,undurkhaan,47.3194,110.6556,13.6,40,40,5.78,MN,1684981910
61,buka,40.8108,69.1986,20.04,31,2,1.97,UZ,1684981910
62,kodiak,57.79,-152.4072,7.73,71,100,5.14,US,1684981743
63,hamilton,39.1834,-84.5333,21.69,54,0,5.66,US,1684981704
64,quepos,9.4236,-84.1652,26.38,82,90,2.05,CR,1684981910
65,broken hill,-31.95,141.4333,20.23,21,99,9.87,AU,1684981910
66,berdigestyakh,62.0989,126.6992,11.73,31,47,2.56,RU,1684981910
67,sao tome,0.3365,6.7273,26.59,85,100,4.15,ST,1684981910
68,magistral'nyy,56.1725,107.4458,5.13,83,100,2.91,RU,1684981911
69,shitanjing,39.2342,106.3439,16.12,28,35,7.25,CN,1684981911
70,fauske,67.2588,15.3918,7.02,93,100,3.25,NO,1684981911
71,crane,31.3974,-102.3501,24.98,64,65,7.65,US,1684981911
72,baykal'sk,51.5058,104.1469,3.54,71,100,1.18,RU,1684981911
73,wailua homesteads,22.0669,-159.378,27.24,71,40,5.66,US,1684981751
74,aripuana,-9.1667,-60.6333,25.12,79,100,0.42,BR,1684981911
75,la sarre,48.8002,-79.1996,0.9,55,0,3.25,CA,1684981911
76,mercedes,-34.6515,-59.4307,18.77,99,100,3.2,AR,1684981912
77,waitangi,-43.9535,-176.5597,11.57,72,44,2.24,NZ,1684981753
78,bilibino,68.0546,166.4372,10.5,43,16,1.4,RU,1684981739
79,iqaluit,63.7506,-68.5145,-1.15,86,75,5.14,CA,1684981755
80,jieshi,22.8134,115.8257,25.98,84,100,5.44,CN,1684981912
81,sotouboua,8.5667,0.9833,22.4,90,100,0.75,TG,1684981827
82,avarua,-21.2078,-159.775,27.03,74,46,5.66,CK,1684981747
83,yuzhno-kurilsk,44.0306,145.8556,14.3,58,0,4.47,RU,1684981912
84,mount pearl,47.5166,-52.7813,6.19,84,0,5.14,CA,1684981912
85,gizo,-8.103,156.8419,26.71,86,100,4.01,SB,1684981912
86,kapenguria,1.2511,35.0895,13.03,86,25,1.85,KE,1684981912
87,blackmans bay,-43.0167,147.3167,13.18,69,87,5.21,AU,1684981743
88,uturoa,-16.7333,-151.4333,27.46,69,10,1.56,PF,1684981749
89,hope,33.6671,-93.5916,23.03,77,44,2.66,US,1684981913
90,hermanus,-34.4187,19.2345,13.22,87,98,8.27,ZA,1684981913
91,arraial do cabo,-22.9661,-42.0278,22.02,84,0,4.18,BR,1684981913
92,kosikha,53.3617,84.5822,13.24,40,55,3.87,RU,1684981913
93,medina,24.4686,39.6142,23.24,73,0,1.03,SA,1684981883
94,keflavik,64.0049,-22.5624,6.95,70,75,11.32,IS,1684981752
95,gebeit,21.0667,36.3167,25.5,57,6,1.18,SD,1684981913
96,afaahiti,-17.75,-149.2833,27.93,77,46,2.95,PF,1684981913
97,fougamou,-1.2154,10.5838,23.39,99,81,0.65,GA,1684981913
98,paita,-5.0892,-81.1144,24.14,79,45,5.19,PE,1684981913
99,bilokurakyne,49.5341,38.7307,15.98,92,16,1.87,UA,1684981914
100,mount gambier,-37.8333,140.7667,13.51,65,69,6.52,AU,1684981914
101,myitkyina,25.3833,97.4,27.83,65,100,0.69,MM,1684981914
102,georgetown,5.4112,100.3354,30.96,74,20,2.06,MY,1684981847
103,ust-nera,64.5667,143.2,3.91,89,89,1.89,RU,1684981914
104,port-vila,-17.7338,168.3219,25.78,65,75,7.72,VU,1684981914
105,tekeli,44.83,78.8239,13.67,41,0,1.67,KZ,1684981914
106,bridlington,54.0831,-0.1919,10.5,89,24,2.67,GB,1684981914
107,talcahuano,-36.7167,-73.1167,12.82,100,100,2.06,CL,1684981914
108,gastouni,37.85,21.25,17.36,100,0,0.0,GR,1684981914
109,tazacorte,28.629,-17.9293,18.54,82,100,3.13,ES,1684981746
110,viedma,-40.8135,-62.9967,11.47,36,61,4.4,AR,1684981915
111,fortaleza,-3.7227,-38.5247,26.07,89,20,2.06,BR,1684981915
112,mao,39.8885,4.2658,15.31,100,0,1.03,ES,1684981915
113,namtsy,62.7161,129.6658,11.56,37,59,2.4,RU,1684981915
114,vorkuta,67.5,64.0,13.05,65,100,5.21,RU,1684981915
115,washington,47.5001,-120.5015,21.22,46,84,0.5,US,1684981643
116,westport,41.1415,-73.3579,15.02,84,100,3.09,US,1684981915
117,palmer,42.1584,-72.3287,12.78,81,75,3.09,US,1684981854
118,geraldton,-28.7667,114.6,17.23,51,0,9.26,AU,1684981915
119,la ronge,55.1001,-105.2842,10.14,93,100,2.06,CA,1684981915
120,east ballina,-28.8667,153.5833,23.78,56,0,4.06,AU,1684981915
121,kievka,50.2619,71.5514,19.74,36,7,3.04,KZ,1684981916
122,pisco,-13.7,-76.2167,21.03,83,0,5.14,PE,1684981756
123,taoyuan city,24.9937,121.297,28.87,84,75,2.06,TW,1684981916
124,hawaiian paradise park,19.5933,-154.9731,25.73,81,100,7.2,US,1684981727
125,acarau,-2.8856,-40.12,25.06,85,98,4.66,BR,1684981916
126,cabedelo,-6.9811,-34.8339,24.37,84,3,3.07,BR,1684981712
127,punta arenas,-53.15,-70.9167,4.06,65,0,11.32,CL,1684981843
128,sinop,41.7711,34.8709,11.38,85,4,1.74,TR,1684981916
129,iskateley,67.6803,53.1512,16.31,75,98,3.82,RU,1684981916
130,tiksi,71.6872,128.8694,-2.29,78,18,1.84,RU,1684981760
131,klyuchi,52.2667,79.1667,15.42,35,50,3.58,RU,1684981758
132,isafjordur,66.0755,-23.124,3.62,72,76,14.08,IS,1684981753
133,port saint john's,-31.6229,29.5448,18.57,51,99,3.75,ZA,1684981916
134,howrah,22.5892,88.3103,29.0,84,40,2.06,IN,1684981916
135,kristiansund,63.1115,7.732,7.36,76,75,9.26,NO,1684981917
136,sidney,-33.8679,151.2073,22.4,43,0,4.12,AU,1684981803
137,taroudant,30.4703,-8.877,16.41,78,68,0.72,MA,1684981917
138,parapat,2.663,98.9349,26.36,64,96,0.41,ID,1684981917
139,tocantins,-10.5,-48.0,23.16,53,69,1.7,BR,1684981864
140,copala,16.65,-98.9833,27.98,72,87,1.73,MX,1684981917
141,al hamul,31.3115,31.1477,17.43,89,0,1.59,EG,1684981917
142,kununurra,-15.7667,128.7333,26.99,24,9,3.6,AU,1684981917
143,ribeira grande,38.5167,-28.7,16.54,78,23,3.13,PT,1684981742
144,gejiu,23.306,103.1635,22.15,53,5,3.6,CN,1684981917
145,kupang,-10.1667,123.5833,31.32,66,40,8.23,ID,1684981807
146,inhambane,-23.865,35.3833,20.93,77,5,3.65,MZ,1684981917
147,ngorongoro,-3.2397,35.4875,9.16,97,62,2.49,TZ,1684981917
148,kismayo,-0.3582,42.5454,26.04,77,15,4.48,SO,1684981918
149,kapuskasing,49.4169,-82.4331,8.0,46,20,2.06,CA,1684981870
150,san rafael,-34.6177,-68.3301,16.05,61,96,2.87,AR,1684981657
151,timbuktu,16.7735,-3.0074,30.1,17,63,9.42,ML,1684981918
152,garbahaarrey,3.3289,42.2209,23.53,86,51,5.22,SO,1684981918
153,alice springs,-23.7,133.8833,23.75,19,0,0.0,AU,1684981865
154,fale old settlement,-9.3852,-171.2468,27.77,74,36,1.04,TK,1684981743
155,coxen hole,16.3244,-86.5366,28.6,70,20,3.09,HN,1684981918
156,xinyuan,37.3,99.0,9.33,34,100,1.22,CN,1684981918
157,strezhevoy,60.7333,77.5889,10.03,46,35,3.13,RU,1684981749
158,chibougamau,49.9168,-74.3659,3.79,60,0,1.54,CA,1684981918
159,tegueste,28.5167,-16.3167,14.44,85,0,3.58,ES,1684981918
160,nagqu,31.5,92.0,9.64,31,65,4.96,CN,1684981919
161,navlya,52.8281,34.4989,12.08,90,74,1.7,RU,1684981919
162,banchory,57.0517,-2.4882,6.05,99,31,0.94,GB,1684981919
163,kapoeta,4.7717,33.5903,25.82,57,82,7.79,SS,1684981919
164,mejit,10.2753,170.8646,27.6,78,100,7.12,MH,1684981919
165,sao gabriel da cachoeira,-0.1303,-67.0892,23.07,98,100,0.47,BR,1684981919
166,taltal,-25.4,-70.4833,17.01,79,0,2.13,CL,1684981820
167,hadibu,12.65,54.0333,29.18,70,63,2.87,YE,1684981919
168,jayapura,-2.5333,140.7,30.66,81,95,1.77,ID,1684981919
169,selfoss,63.9331,-20.9971,5.47,75,100,7.77,IS,1684981920
170,tolanaro,-25.0319,46.9987,17.04,94,40,2.06,MG,1684981920
171,kaitong,44.8135,123.15,25.99,27,22,13.29,CN,1684981920
172,pionerskiy,54.9508,20.2275,12.64,85,40,2.69,RU,1684981920
173,severnoye,56.3491,78.3619,14.75,37,53,2.3,RU,1684981925
174,ilulissat,69.2167,-51.1,0.01,55,20,4.12,GL,1684981925
175,wagini,12.6878,7.1958,28.08,59,94,3.86,NG,1684981925
176,inirida,3.8653,-67.9239,23.94,95,100,0.56,CO,1684981926
177,pyhajarvi,67.0701,27.2176,8.42,82,100,4.94,FI,1684981926
178,olonkinbyen,70.9221,-8.7187,-2.09,89,100,17.63,SJ,1684981760
179,hammerfest,70.6634,23.6821,8.25,57,0,3.6,NO,1684981926
180,dalhart,36.0595,-102.5133,14.1,94,100,9.77,US,1684981927
181,corner brook,48.9667,-57.9484,8.09,77,2,1.85,CA,1684981898
182,antofagasta,-23.65,-70.4,17.6,83,40,1.96,CL,1684981906
183,kyren,51.6828,102.1408,5.11,70,100,0.28,RU,1684981927
184,colonia,50.9333,6.95,9.98,87,0,1.03,DE,1684981927
185,jamestown,42.097,-79.2353,11.77,76,0,3.6,US,1684981745
186,landeck,47.1301,10.5636,9.41,97,96,1.21,AT,1684981798
187,dehloran,32.6941,47.2679,29.87,26,100,4.65,IR,1684981928
188,novobataysk,46.8981,39.7819,19.34,93,100,2.15,RU,1684981928
189,aykhal,66.0,111.5,0.81,83,100,6.7,RU,1684981928
190,saint-joseph,-21.3667,55.6167,22.21,86,100,3.83,RE,1684981764
191,jinchang,38.4953,102.1739,17.65,17,100,1.55,CN,1684981929
192,udachny,66.4167,112.4,1.36,86,100,6.75,RU,1684981763
193,happy valley-goose bay,53.3168,-60.3315,2.17,93,100,4.12,CA,1684981929
194,chonchi,-42.6128,-73.8092,8.26,78,79,5.27,CL,1684981761
195,thurso,58.5927,-3.5259,9.36,83,50,5.64,GB,1684981930
196,besisahar,28.2313,84.3761,26.29,52,78,1.84,NP,1684981930
197,ormara,25.2088,64.6357,28.83,85,15,9.13,PK,1684981930
198,coquimbo,-29.9533,-71.3436,13.85,94,0,3.6,CL,1684981930
199,akureyri,65.6835,-18.0878,4.96,65,75,5.14,IS,1684981931
200,st. john's,47.5649,-52.7093,6.66,83,0,5.14,CA,1684981667
201,fort mcmurray,56.7268,-111.381,13.77,67,100,5.66,CA,1684981851
202,college,64.8569,-147.8028,20.97,35,75,3.6,US,1684981742
203,wanning,18.8003,110.3967,31.29,69,85,3.69,CN,1684981931
204,manismata,-2.4667,111.0333,31.78,55,77,2.2,ID,1684981932
205,gudul,40.2105,32.2455,10.67,75,99,1.71,TR,1684981932
206,zaozersk,69.4005,32.4476,10.89,70,99,8.29,RU,1684981932
207,margaret river,-33.95,115.0667,15.4,55,46,4.72,AU,1684981932
208,beau vallon,-20.4189,57.6953,23.45,77,17,1.62,MU,1684981933
209,gubin,51.9496,14.7284,7.83,90,5,2.03,PL,1684981933
210,gadzhiyevo,69.2551,33.3362,11.02,69,100,7.76,RU,1684981933
211,west island,-12.1568,96.8225,25.99,94,75,5.66,CC,1684981757
212,toliara,-23.35,43.6667,16.79,77,0,5.12,MG,1684981933
213,utrik,11.2278,169.8474,27.54,78,100,6.97,MH,1684981760
214,winnemucca,40.973,-117.7357,13.03,76,75,3.09,US,1684981934
215,kifri,34.6959,44.9661,27.48,31,100,3.94,IQ,1684981934
216,meizhou,24.2977,116.1072,30.48,66,91,1.41,CN,1684981934
217,nesebar,42.7833,27.7333,11.49,89,15,1.5,BG,1684981934
218,alesund,62.4723,6.1549,8.52,77,100,10.29,NO,1684981935
219,lamu,-2.2717,40.902,24.12,81,6,4.05,KE,1684981935
220,durres,41.3231,19.4414,14.1,78,17,1.3,AL,1684981836
221,praia da vitoria,38.7333,-27.0667,17.14,77,20,4.67,PT,1684981935
222,grand falls-windsor,48.9332,-55.6649,7.5,75,17,0.45,CA,1684981755
223,inyonga,-6.7167,32.0667,19.8,71,92,1.7,TZ,1684981935
224,saipan,15.1355,145.701,29.18,70,100,15.35,MP,1684981936
225,huntersville,35.4107,-80.8429,18.12,67,0,0.0,US,1684981916
226,hithadhoo,-0.6,73.0833,28.37,75,96,4.59,MV,1684981936
227,esqueda,30.7167,-109.5833,22.33,18,4,4.71,MX,1684981936
228,mugumu,-1.85,34.7,14.93,82,91,2.27,TZ,1684981936
229,puerto deseado,-47.7503,-65.8938,7.75,44,100,11.23,AR,1684981899
230,jiuquan,39.7432,98.5174,19.01,16,87,2.95,CN,1684981937
231,osakarovka,50.565,72.5692,18.91,37,12,2.33,KZ,1684981937
232,yazd,31.8972,54.3675,24.06,29,0,1.03,IR,1684981899
233,magadan,59.5667,150.8,2.07,86,100,2.12,RU,1684981937
234,cidreira,-30.1811,-50.2056,20.15,91,100,6.27,BR,1684981937
235,roma,43.2128,-75.4557,8.15,90,0,1.54,US,1684981705
236,teknaf,20.8624,92.3058,29.9,72,55,2.39,BD,1684981938
237,miri,4.4148,114.0089,31.08,79,40,1.03,MY,1684981938
238,broome,42.2506,-75.833,9.78,85,75,5.14,US,1684981938
239,nar'yan-mar,67.6713,53.087,16.34,75,97,3.83,RU,1684981938
240,general acha,-37.377,-64.6043,13.24,47,100,3.57,AR,1684981938
241,kone,-21.0595,164.8658,25.4,45,21,5.11,NC,1684981939
242,fort bragg,35.139,-79.006,18.78,55,20,1.54,US,1684981939
243,kontcha,7.9667,12.2333,22.25,92,99,1.64,CM,1684981939
244,port augusta,-32.5,137.7667,19.89,50,100,6.34,AU,1684981939
245,posto fiscal rolim de moura,-13.0833,-62.2667,25.01,75,88,0.93,BR,1684981939
246,illizi,26.4833,8.4667,24.89,10,100,3.37,DZ,1684981940
247,korla,41.7597,86.1469,22.86,16,36,4.2,CN,1684981940
248,la passe,45.5549,-0.8967,13.13,82,73,6.19,FR,1684981940
249,qaqortoq,60.7167,-46.0333,0.5,100,100,4.28,GL,1684981750
250,aasiaat,68.7098,-52.8699,-4.48,83,100,2.93,GL,1684981940
251,lebu,-37.6167,-73.65,10.94,87,84,4.02,CL,1684981941
252,nurota,40.5614,65.6886,21.52,22,0,3.53,UZ,1684981941
253,sake,-1.5736,29.045,16.52,95,32,0.49,CD,1684981735
254,trairi,-3.2778,-39.2689,24.49,87,93,2.78,BR,1684981941
255,mossel bay,-34.1831,22.146,8.96,65,48,2.18,ZA,1684981941
256,atafu village,-8.5421,-172.5159,28.09,70,80,1.17,TK,1684981942
257,dehui,44.5333,125.7,20.53,40,100,10.1,CN,1684981942
258,nadi,-17.8,177.4167,26.0,69,75,5.14,FJ,1684981942
259,grantsville,40.5999,-112.4644,20.0,44,0,5.14,US,1684981942
260,lerwick,60.1545,-1.1494,9.0,79,5,7.97,GB,1684981942
261,touros,-5.1989,-35.4608,24.56,89,81,3.18,BR,1684981738
262,toamasina,-18.1667,49.3833,22.0,94,75,4.12,MG,1684981943
263,khandyga,62.6667,135.6,12.39,36,81,1.57,RU,1684981943
264,sandpoint,48.2766,-116.5533,17.08,57,40,2.57,US,1684981943
265,duba,27.3513,35.6901,26.29,61,3,2.36,SA,1684981943
266,pandan,14.0453,124.1694,30.84,66,65,2.22,PH,1684981944
267,port alfred,-33.5906,26.891,19.29,44,92,3.03,ZA,1684981944
268,san antonio de pale,-1.4014,5.6325,26.35,88,98,6.16,GQ,1684981944
269,taoudenni,22.6783,-3.9836,27.75,30,97,3.43,ML,1684981761
270,ciudad lazaro cardenas,17.9583,-102.2,27.62,74,100,3.0,MX,1684981751
271,vorgashor,67.5833,63.95,11.65,69,100,5.63,RU,1684981745
272,yelizovo,53.1873,158.3805,14.08,41,40,8.0,RU,1684981944
273,islamkot,24.6997,70.177,31.24,59,4,11.85,PK,1684981945
274,dul'durga,50.6761,113.5931,9.9,33,100,7.49,RU,1684981945
275,inhambupe,-11.7844,-38.3531,20.96,98,23,2.39,BR,1684981945
276,abrisham,32.558,51.5731,17.57,26,58,0.64,IR,1684981945
277,vilyuysk,63.7553,121.6247,10.56,29,61,3.64,RU,1684981945
278,rabo de peixe,37.8,-25.5833,15.73,82,20,5.14,PT,1684981945
279,murzuq,25.9155,13.9184,26.79,10,100,3.12,LY,1684981927
280,yanchep,-31.55,115.6833,16.18,46,0,5.0,AU,1684981946
281,mineral wells,32.8085,-98.1128,25.11,65,100,2.06,US,1684981946
282,mulayjah,27.271,48.4242,32.98,23,97,6.65,SA,1684981946
283,chapaev,50.2,51.1667,20.37,39,95,5.7,KZ,1684981946
284,kotabumi,-4.8333,104.9,29.87,66,4,1.95,ID,1684981946
285,laojunmiao,39.8333,97.7333,14.12,18,90,2.43,CN,1684981947
286,qui nhon,13.7667,109.2333,31.57,61,87,1.85,VN,1684981947
287,nuuk,64.1835,-51.7216,1.6,74,52,8.94,GL,1684981820
288,puerto ayacucho,5.6639,-67.6236,24.18,91,100,1.63,VE,1684981947
289,al mutayrifi,25.4788,49.5576,29.19,19,59,1.07,SA,1684981948
290,sao miguel do araguaia,-13.275,-50.1628,25.33,48,96,0.9,BR,1684981948
291,kochenevo,55.0218,82.202,10.66,37,80,3.47,RU,1684981948
292,aso,32.9551,131.0967,19.98,39,80,1.34,JP,1684981949
293,balabac,7.9868,117.0645,29.27,69,100,4.78,PH,1684981949
294,kalemie,-5.9475,29.1947,21.58,85,15,0.71,CD,1684981949
295,san patricio,28.017,-97.5169,26.61,77,53,3.07,US,1684981949
296,naifaru,5.4444,73.3657,28.92,73,82,3.66,MV,1684981949
297,bunyan,38.8463,35.8603,6.12,70,45,1.58,TR,1684981949
298,shaydon,40.6747,70.346,19.64,27,0,1.35,TJ,1684981950
299,kargasok,59.0556,80.8572,11.2,40,51,3.74,RU,1684981950
300,mahajanga,-15.7167,46.3167,19.01,100,20,2.57,MG,1684981950
301,ilebo,-4.3167,20.5833,21.43,92,35,0.57,CD,1684981950
302,kingston,17.997,-76.7936,28.53,80,20,1.54,JM,1684981720
303,ulsteinvik,62.3432,5.8487,8.51,81,72,8.94,NO,1684981951
304,redlands,34.0556,-117.1825,21.91,68,0,5.14,US,1684981951
305,chicoana,-25.1009,-65.5331,17.81,87,0,1.08,AR,1684981951
306,lagawe,16.8,121.1192,29.79,69,88,2.0,PH,1684981952
307,shahrak,34.1074,64.3052,12.8,42,0,3.9,AF,1684981952
308,gaspe,48.8334,-64.4819,9.12,100,100,1.54,CA,1684981809
309,quellon,-43.1167,-73.6167,7.14,93,100,6.17,CL,1684981876
310,leiyang,26.4024,112.8591,27.21,75,69,3.62,CN,1684981952
311,tengrela,10.4869,-6.4097,24.05,75,98,1.75,CI,1684981952
312,nantucket,41.2835,-70.0995,13.06,98,100,2.06,US,1684981854
313,rio grande,-32.035,-52.0986,19.03,88,100,4.51,BR,1684981953
314,richards bay,-28.783,32.0377,18.17,85,4,5.8,ZA,1684981953
315,shingu,33.7333,135.9833,21.38,66,69,5.12,JP,1684981953
316,al 'amarah,31.8406,47.1396,32.94,26,100,5.89,IQ,1684981953
317,semera,11.501,41.201,26.6,64,3,5.24,ET,1684981954
318,ouani,-12.1322,44.4258,25.57,72,10,4.27,KM,1684981954
319,amga,60.8953,131.9608,11.77,42,85,2.42,RU,1684981954
320,uliastay,47.7417,96.8444,5.54,71,98,2.15,MN,1684981954
321,antsiranana,-12.2787,49.2917,22.09,90,8,1.89,MG,1684981955
322,tenno,39.9,139.9667,21.56,60,99,3.44,JP,1684981955
323,dakhla,23.6848,-15.958,18.28,87,99,6.87,EH,1684981955
324,kimbe,-5.5502,150.1429,25.04,94,100,1.76,PG,1684981955
325,farasan,16.7022,42.1183,31.06,68,1,1.44,SA,1684981955
326,virginia,37.5481,-77.4467,17.36,75,40,1.54,US,1684981804
327,zavoronezhskoye,52.8801,40.5526,15.71,95,99,2.2,RU,1684981956
328,vilyuchinsk,52.9306,158.4028,14.15,78,32,2.87,RU,1684981762
329,yeraliyev,43.2,51.65,23.6,45,68,3.57,KZ,1684981956
330,vavuniya,8.7514,80.4971,30.13,63,28,4.04,LK,1684981956
331,katsuura,35.1333,140.3,19.48,62,100,3.32,JP,1684981956
332,sukumo,32.9333,132.7333,22.59,52,39,3.39,JP,1684981956
333,kurtamysh,54.9103,64.4319,21.66,38,39,3.36,RU,1684981957
334,auki,-8.7676,160.7034,28.71,74,92,2.58,SB,1684981957
335,barra do bugres,-15.0725,-57.1811,21.79,65,100,1.26,BR,1684981957
336,dhidhdhoo,6.8833,73.1,29.0,73,4,3.75,MV,1684981958
337,shkurinskaya,46.5858,39.3599,16.95,91,98,1.35,RU,1684981958
338,akom ii,2.7833,10.5667,21.78,99,98,0.46,CM,1684981958
339,umba,66.6871,34.3429,9.89,75,93,2.66,RU,1684981958
340,tadine,-21.55,167.8833,22.64,54,95,6.25,NC,1684981958
341,benalla,-36.55,145.9833,11.28,39,100,5.19,AU,1684981959
342,howard springs,-12.497,131.047,29.34,28,13,2.16,AU,1684981959
343,lengshuitan,26.4111,111.5956,27.17,73,67,2.05,CN,1684981959
344,preobrazheniye,42.9019,133.9064,16.23,66,59,5.48,RU,1684981959
345,pirenopolis,-15.8525,-48.9592,20.27,70,11,2.47,BR,1684981959
346,popondetta,-8.7537,148.2534,23.34,99,100,1.32,PG,1684981959
347,tomaszow lubelski,50.4477,23.4162,11.73,90,30,1.96,PL,1684981960
348,cruzeiro do sul,-29.5128,-51.9853,19.73,86,21,2.14,BR,1684981960
349,dogonbadan,30.3586,50.7981,24.05,33,0,0.0,IR,1684981961
350,remire-montjoly,4.9167,-52.2667,25.02,94,75,1.03,GF,1684981961
351,severo-yeniseyskiy,60.3725,93.0408,4.41,53,58,3.47,RU,1684981961
352,livingston,55.9029,-3.5226,9.6,93,0,0.51,GB,1684981961
353,ocher,57.8904,54.7202,20.09,52,68,2.48,RU,1684981961
354,malpica,43.3228,-8.8105,15.19,73,92,6.02,ES,1684981961
355,cody,44.5263,-109.0565,17.12,66,20,4.12,US,1684981962
356,fortuna,40.5982,-124.1573,13.7,82,100,4.63,US,1684981797
357,lichtenburg,-26.152,26.1597,13.18,55,8,5.08,ZA,1684981962
358,sojat,25.9167,73.6667,30.38,53,32,9.19,IN,1684981962
359,zhangye,38.9342,100.4517,18.22,18,94,2.05,CN,1684981963
360,baikonur,45.6167,63.3167,21.97,31,0,6.64,KZ,1684981963
361,prince rupert,54.3161,-130.3201,15.05,66,0,5.14,CA,1684981817
362,val-d'or,48.1002,-77.7828,3.05,60,20,3.6,CA,1684981963
363,kunashak,55.7032,61.5498,17.5,44,25,3.25,RU,1684981963
364,coruripe,-10.1256,-36.1756,24.02,86,10,0.75,BR,1684981963
365,port moresby,-9.4431,147.1797,26.68,83,75,5.14,PG,1684981963
366,lop buri,14.7981,100.654,32.81,57,95,3.34,TH,1684981964
367,singkil,-7.9855,111.4161,28.87,65,21,2.7,ID,1684981964
368,flin flon,54.7682,-101.865,14.5,69,73,3.99,CA,1684981964
369,wurtulla,-26.7568,153.1256,24.06,61,0,1.34,AU,1684981964
370,rongelap,11.1635,166.8941,27.77,79,92,6.74,MH,1684981964
371,tyukhtet,56.5389,89.3011,7.76,43,11,2.57,RU,1684981965
372,hovd,48.0056,91.6419,11.37,44,13,4.92,MN,1684981965
373,saimbeyli,37.9863,36.0906,12.91,66,58,1.98,TR,1684981965
374,el calafate,-50.3408,-72.2768,-1.36,77,10,0.95,AR,1684981755
375,sandnessjoen,66.0217,12.6316,6.29,92,100,4.02,NO,1684981965
376,hutchinson,38.0608,-97.9298,20.96,82,0,2.57,US,1684981687
377,al kharijah,25.4514,30.5464,25.89,19,65,4.55,EG,1684981966
378,hilo,19.7297,-155.09,26.82,83,100,7.2,US,1684981666
379,vila franca do campo,37.7167,-25.4333,16.23,90,52,2.03,PT,1684981966
380,olinda,-8.0089,-34.8553,23.85,94,40,1.54,BR,1684981966
381,coyhaique,-45.5752,-72.0662,2.34,93,100,2.57,CL,1684981966
382,placido de castro,-10.3353,-67.1856,22.73,98,100,0.58,BR,1684981966
383,tamanrasset,22.785,5.5228,24.95,10,0,3.6,DZ,1684981966
384,napili-honokowai,20.9708,-156.6705,27.64,85,33,6.86,US,1684981966
385,conceicao da barra,-18.5933,-39.7322,21.04,89,17,2.61,BR,1684981967
386,mordovo,52.0834,40.77,15.27,93,100,2.9,RU,1684981967
387,saint-pierre,-21.3393,55.4781,22.82,64,0,2.57,RE,1684981772
388,greymouth,-42.4667,171.2,13.44,76,76,1.01,NZ,1684981967
389,adre,13.4667,22.2,31.17,28,90,3.25,TD,1684981967
390,moussoro,13.6408,16.4901,31.26,35,63,3.04,TD,1684981967
391,marsh harbour,26.5412,-77.0636,25.64,75,80,4.88,BS,1684981967
392,luderitz,-26.6481,15.1594,12.34,85,34,2.81,NA,1684981736
393,hasaki,35.7333,140.8333,22.94,56,100,2.43,JP,1684981761
394,puerto aysen,-45.4,-72.7,4.5,99,100,3.79,CL,1684981967
395,bealanana,-14.55,48.7333,14.23,98,3,0.88,MG,1684981968
396,byron bay,-28.65,153.6167,23.73,56,0,4.25,AU,1684981955
397,al mindak,20.1588,41.2834,16.78,50,1,2.52,SA,1684981968
398,sao vicente,-23.9631,-46.3919,23.48,26,32,1.36,BR,1684981968
399,cam pha mines,21.0167,107.3,28.09,76,100,2.76,VN,1684981968
400,urumqi,43.801,87.6005,19.53,24,0,4.0,CN,1684981782
401,villa gesell,-37.2639,-56.973,17.25,97,97,2.67,AR,1684981965
402,mutsu,41.2894,141.2169,19.95,47,12,4.08,JP,1684981968
403,dadukou,26.5479,101.7054,31.5,32,69,1.17,CN,1684981969
404,nemuro,43.3236,145.575,11.6,74,0,6.36,JP,1684981969
405,shira,54.4911,89.9531,8.74,42,38,4.13,RU,1684981974
406,springbok,-29.6643,17.8865,6.2,88,8,2.17,ZA,1684981974
407,achacachi,-16.05,-68.6833,5.37,49,23,2.13,BO,1684981974
408,kourou,5.1552,-52.6478,25.03,92,100,2.51,GF,1684981803
409,alofi,-19.0595,-169.9187,23.94,83,75,2.57,NU,1684981974
410,seydi,39.4816,62.9137,25.73,14,0,5.62,TM,1684981974
411,polyarnyy,69.1989,33.4478,11.05,69,100,7.78,RU,1684981753
412,columbus,39.9612,-82.9988,17.61,65,75,7.72,US,1684981941
413,beykonak,36.3257,30.303,18.63,73,9,0.73,TR,1684981975
414,mazamari,-11.3258,-74.5308,20.08,98,82,1.0,PE,1684981975
415,as sulayyil,20.4607,45.5779,29.14,24,70,3.24,SA,1684981975
416,vadso,70.0744,29.7487,10.49,76,20,5.14,NO,1684981975
417,sydney mines,46.2367,-60.2177,6.55,92,100,5.14,CA,1684981975
418,guerrero negro,27.9769,-114.0611,16.11,78,6,6.64,MX,1684981852
419,axim,4.8699,-2.2405,26.39,84,100,3.03,GH,1684981975
420,weinan,34.5036,109.5089,20.42,64,100,1.92,CN,1684981975
421,kashgar,39.4547,75.9797,18.56,48,75,3.0,CN,1684981975
422,adrar,20.5022,-10.0711,25.16,51,100,3.85,MR,1684981975
423,guadalupe y calvo,26.1,-106.9667,11.97,36,100,1.06,MX,1684981976
424,arica,-18.475,-70.3042,19.13,77,100,2.57,CL,1684981976
425,ampanihy,-24.7,44.75,14.22,80,0,2.84,MG,1684981976
426,benghazi,32.1167,20.0667,21.66,59,75,7.78,LY,1684981976
427,rosarito,32.3333,-117.0333,16.81,72,0,2.89,MX,1684981976
428,el nido,11.1858,119.3956,29.79,68,94,2.1,PH,1684981976
429,motueka,-41.1333,173.0167,15.05,68,1,1.88,NZ,1684981976
430,plouzane,48.3833,-4.6167,11.03,97,1,2.57,FR,1684981976
431,shiqiao,22.9374,113.3606,30.56,70,90,3.44,CN,1684981976
432,besikduzu,41.052,39.2284,14.94,86,79,1.34,TR,1684981976
433,farsala,39.2947,22.3847,17.96,73,4,0.89,GR,1684981976
434,tomatlan,19.9333,-105.25,26.11,57,86,0.72,MX,1684981976
435,mitsamiouli,-11.3847,43.2844,26.29,67,12,2.57,KM,1684981977
436,mahina,-17.5065,-149.489,28.87,65,20,4.12,PF,1684981977
437,sakakah,29.9697,40.2064,23.76,38,14,1.21,SA,1684981977
438,rundu,-17.9333,19.7667,15.25,36,0,1.39,NA,1684981977
439,bugana,7.9992,7.5836,24.97,90,97,1.11,NG,1684981977
440,poso,-1.3959,120.7524,26.48,83,90,2.14,ID,1684981977
441,tuineje,28.3237,-14.0472,16.88,82,15,2.43,ES,1684981977
442,vuktyl,63.8567,57.3094,18.62,55,80,3.89,RU,1684981977
443,altamont,42.2068,-121.7372,21.91,31,0,6.17,US,1684981977
444,walvis bay,-22.9575,14.5053,13.38,100,7,0.51,NA,1684981977
445,ruteng,-8.6136,120.4721,24.19,58,16,0.95,ID,1684981977
446,tarawa,1.419,172.984,30.05,84,40,1.03,KI,1684981977
447,lethem,3.3803,-59.7968,25.33,86,68,2.73,GY,1684981978
448,vale da amoreira,39.0697,-7.6985,15.2,65,5,1.43,PT,1684981978
449,labrador city,52.9463,-66.9114,-0.05,69,0,3.09,CA,1684981750
450,ambodifotatra,-16.9833,49.85,24.07,81,75,7.41,MG,1684981978
451,pumiao,22.75,108.4833,29.22,73,100,4.83,CN,1684981978
452,qa'en,33.7265,59.1844,20.33,30,0,2.9,IR,1684981978
453,sola,-13.8833,167.55,26.46,74,98,9.55,VU,1684981978
454,oleksandrivka,48.9634,32.2349,14.16,96,6,2.59,UA,1684981978
455,karratha,-20.7377,116.8463,26.57,21,4,8.22,AU,1684981978
456,hillsboro,45.5229,-122.9898,23.23,48,0,4.63,US,1684981792
457,makhambet,47.6667,51.5833,24.46,22,67,7.9,KZ,1684981978
458,matoury,4.8483,-52.3317,24.98,94,75,1.03,GF,1684981979
459,ko lanta,7.5336,99.0865,29.6,73,96,5.67,TH,1684981979
460,puerto maldonado,-12.6,-69.1833,21.92,99,97,1.0,PE,1684981979
461,shimoda,34.6667,138.95,20.61,68,100,3.32,JP,1684981979
462,mar del plata,-38.0023,-57.5575,15.61,99,100,1.79,AR,1684981784
463,mugia,43.1041,-9.2179,14.39,84,40,8.15,ES,1684981979
464,haiku-pauwela,20.9219,-156.3051,27.01,67,40,9.77,US,1684981979
465,tsetserleg,47.475,101.4542,7.38,49,95,5.33,MN,1684981979
466,qamdo,31.1667,97.2333,10.36,25,2,2.9,CN,1684981979
467,xilin hot,43.9667,116.0333,15.84,49,95,9.02,CN,1684981979
468,cova figueira,14.8905,-24.2934,20.48,84,100,5.9,CV,1684981980
469,cill airne,52.05,-9.5167,9.03,97,12,1.32,IE,1684981980
470,arenapolis,-14.4503,-56.8461,22.0,66,98,0.88,BR,1684981980
471,las heras,-46.5419,-68.9359,4.81,56,0,11.68,AR,1684981980
472,kailua-kona,19.6406,-155.9956,27.98,79,75,5.14,US,1684981980
473,surin,14.8818,103.4936,25.21,52,100,4.65,TH,1684981980
474,betio village,1.358,172.9211,30.02,74,100,1.02,KI,1684981980
475,gurinhem,-7.1239,-35.4244,21.88,95,2,2.06,BR,1684981980
476,sao joao do piaui,-8.3581,-42.2467,23.28,75,7,3.07,BR,1684981980
477,san pedro pochutla,15.7333,-96.4667,29.28,74,92,2.96,MX,1684981981
478,saint-tropez,43.2693,6.6398,17.12,89,88,3.94,FR,1684981981
479,tual,-5.6667,132.75,27.42,73,65,10.38,ID,1684981981
480,bodo,67.28,14.405,7.02,79,75,13.89,NO,1684981981
481,palm beach,26.6503,-80.4498,23.32,89,93,1.4,US,1684981981
482,volodarskiy,46.4013,48.5409,19.99,52,15,7.82,RU,1684981981
483,altai,46.3722,96.2583,8.64,35,70,2.75,MN,1684981981
484,san ignacio de velasco,-16.3667,-60.95,23.82,70,100,2.12,BO,1684981982
485,ketchikan,55.3422,-131.6461,17.26,48,40,4.63,US,1684981982
486,naze,28.3667,129.4833,23.51,67,46,4.22,JP,1684981857
487,ivins,37.1686,-113.6794,30.62,13,19,2.68,US,1684981983
488,christchurch,-43.5333,172.6333,17.96,63,87,5.14,NZ,1684981746
489,zag,46.9441,99.165,7.67,39,100,4.61,MN,1684981983
490,katsuren-haebaru,26.3369,127.8719,27.43,69,20,3.6,JP,1684981984
491,shizunai-furukawacho,42.3339,142.3669,14.04,71,6,3.85,JP,1684981984
492,klamath falls,42.2249,-121.7817,21.95,32,0,6.17,US,1684981855
493,amursk,50.2261,136.8994,23.1,47,34,5.01,RU,1684981985
494,willemstad,12.1084,-68.9335,26.95,89,20,5.14,CW,1684981742
495,tafuna,-14.3358,-170.72,29.97,84,75,3.6,AS,1684981985
496,mabaruma,8.2,-59.7833,23.7,99,58,1.22,GY,1684981986
497,florence,43.7667,11.25,16.83,96,0,0.51,IT,1684981986
498,maintirano,-18.0667,44.0167,19.36,81,0,3.32,MG,1684981986
499,winneba,5.3511,-0.6231,26.74,84,100,3.33,GH,1684981986
500,kapa'a,22.0752,-159.319,27.99,71,40,5.66,US,1684981763
501,swan hill,-35.3378,143.5544,19.01,26,100,7.8,AU,1684981987
502,moengo,5.6167,-54.4,24.18,98,100,0.92,SR,1684981987
503,punta del este,-34.9667,-54.95,19.37,90,100,1.54,UY,1684981925
504,tanguieta,10.6212,1.2665,25.11,80,100,2.38,BJ,1684981987
505,hasparren,43.3838,-1.305,16.15,88,100,5.66,FR,1684981988
506,ceeldheer,3.8488,47.1806,26.68,78,99,4.14,SO,1684981988
507,morehead city,34.7229,-76.726,18.02,74,75,3.6,US,1684981988
508,phan thiet,10.9333,108.1,32.76,56,100,5.38,VN,1684981988
509,palikir - national government center,6.9248,158.1611,31.47,66,75,5.14,FM,1684981988
510,pointe aux piments,-20.0628,57.5131,23.62,72,4,2.66,MU,1684981988
511,nova vicosa,-17.8919,-39.3719,23.78,79,6,5.0,BR,1684981989
512,lompoc,34.6391,-120.4579,16.68,76,75,4.47,US,1684981932
513,tommot,58.9564,126.2925,15.04,38,23,0.96,RU,1684981989
514,sorong,-0.8833,131.25,28.91,77,19,6.32,ID,1684981989
515,mana,5.6592,-53.7767,25.6,93,100,2.49,GF,1684981990
516,kuqa,41.7278,82.9364,20.89,28,100,3.4,CN,1684981990
517,zouerate,22.7187,-12.4521,23.83,37,100,1.5,MR,1684981990
518,kainantu,-6.2887,145.8655,16.92,97,100,0.87,PG,1684981990
519,yambio,4.5721,28.3955,19.55,96,99,1.8,SS,1684981991
520,egilsstadir,65.2653,-14.3948,4.95,60,40,4.63,IS,1684981734
521,susanville,40.4163,-120.653,19.91,34,75,3.09,US,1684981991
522,san fernando de apure,7.8878,-67.4724,25.59,89,99,0.2,VE,1684981991
523,selkirk,50.1436,-96.8845,17.08,58,80,2.24,CA,1684981991
524,yaren,-0.5472,166.916,28.57,69,97,0.76,NR,1684981977
525,deogarh,21.5333,84.7333,37.9,24,6,2.18,IN,1684981992
526,labytnangi,66.6572,66.4183,14.65,54,2,4.4,RU,1684981993
527,pul-e khumri,35.9446,68.7151,26.59,26,27,0.87,AF,1684981993
528,galveston,29.3669,-94.9669,27.25,82,0,0.0,US,1684981993
529,valognes,49.5088,-1.4705,11.66,87,0,2.06,FR,1684981994
530,bandon,51.7469,-8.7425,13.77,96,0,3.14,IE,1684981994
531,sosnovka,56.255,51.2842,19.67,53,7,2.62,RU,1684981994
532,kendari,-3.945,122.4989,26.92,85,100,0.05,ID,1684981758
533,ulanhot,46.0833,122.0833,24.87,29,80,10.79,CN,1684981968
534,south hedland,-20.4089,118.5983,27.96,16,0,8.75,AU,1684981994
535,hastings,50.8552,0.5729,10.85,48,1,4.48,GB,1684981852
536,ancud,-41.8697,-73.8203,10.43,77,93,10.63,CL,1684981906
537,sao felix do xingu,-6.6447,-51.995,22.41,92,100,1.01,BR,1684981995
538,esikhaleni,-28.871,31.8996,16.9,81,5,5.46,ZA,1684981995
539,baie-comeau,49.2168,-68.1489,10.82,58,40,5.14,CA,1684981917
540,miranda,3.2499,-76.2281,22.07,95,100,1.2,CO,1684981995
541,caleta de carquin,-11.0925,-77.6267,21.28,83,72,4.48,PE,1684981996
542,la mana,-0.9333,-79.2167,24.22,95,100,0.37,EC,1684981996
543,al wakrah,24.85,51.3333,28.05,26,93,2.15,QA,1684981996
544,daru,-9.0763,143.2092,25.33,88,100,7.17,PG,1684981996
545,livron-sur-drome,44.7731,4.8471,13.58,81,20,3.83,FR,1684981996
546,deqen,29.9618,90.7188,11.15,51,98,3.05,CN,1684981996
547,doka,13.5167,35.7667,29.65,26,10,2.05,SD,1684981996
548,obo,5.3998,26.4869,20.03,93,28,1.53,CF,1684981996
549,ocean shores,46.9737,-124.1563,16.88,83,0,5.14,US,1684981997
550,taco pozo,-25.6167,-63.2833,24.54,68,100,2.06,AR,1684981997
551,mont-laurier,46.5501,-75.4993,6.79,74,42,1.97,CA,1684981997
552,ugoofaaru,5.6667,73.0,29.0,72,47,3.25,MV,1684981997
553,acapulco de juarez,16.8634,-99.8901,29.9,70,40,4.63,MX,1684981701
554,vung tau,10.346,107.0843,30.82,67,76,5.91,VN,1684981998
555,fomeque,4.488,-73.8975,19.42,98,100,0.67,CO,1684981998
556,belen,36.4891,36.2233,11.08,82,0,0.51,TR,1684981998
557,saint-philippe,-21.3585,55.7679,22.77,89,100,4.29,RE,1684981970
558,karabash,55.4808,60.2157,18.0,36,24,1.55,RU,1684981999
559,center,31.5107,-96.4247,24.22,75,40,2.57,US,1684981999
560,labasa,-16.4167,179.3833,24.87,81,100,3.37,FJ,1684981999
561,singaparna,-7.3515,108.111,27.85,58,33,1.95,ID,1684982000
562,minas de marcona,-15.2119,-75.1103,15.01,87,59,4.57,PE,1684981746
563,vernon,50.2581,-119.2691,18.2,54,100,1.54,CA,1684982000
564,newman,37.3138,-121.0208,24.6,46,1,4.02,US,1684981763
565,northport,33.229,-87.5772,20.5,89,0,0.0,US,1684982000
566,castillos,-34.1667,-53.8333,20.55,81,100,2.05,UY,1684982000
567,le lavandou,43.137,6.366,17.5,89,84,2.06,FR,1684982000
568,macenta,8.5435,-9.471,20.85,99,100,0.1,GN,1684982001
569,margate,51.3813,1.3862,10.94,81,2,1.34,GB,1684982001
570,riyadh,24.6877,46.7219,27.08,34,28,5.18,SA,1684981931
571,ad dawadimi,24.5077,44.3924,24.64,26,95,2.23,SA,1684981867
572,longonjo,-12.9067,15.2533,13.43,50,23,0.77,AO,1684982001
573,benjamin aceval,-24.9667,-57.5667,23.08,77,0,3.07,PY,1684982001
574,vernal,40.4555,-109.5287,19.84,34,0,6.17,US,1684982002
575,catriel,-37.8791,-67.7956,10.54,51,18,2.39,AR,1684982002
576,port macquarie,-31.4333,152.9167,23.27,36,8,3.48,AU,1684981763
577,suva,-18.1416,178.4415,24.71,69,75,2.06,FJ,1684982002
578,pindobacu,-10.7417,-40.3608,19.62,98,66,2.02,BR,1684982002
579,olyokminsk,60.3736,120.4264,14.85,27,83,3.99,RU,1684982002
580,kruisfontein,-34.0033,24.7314,13.51,52,47,1.2,ZA,1684982003
581,soio,-6.1349,12.3689,24.57,91,74,3.28,AO,1684981982
